[{"short_name":"C46004","lat":50.94,"lon":-135.87,"long_name":"Middle Nomad","pk":1},{"short_name":"C46036","lat":48.3,"lon":-133.86,"long_name":"South Nomad","pk":2},{"short_name":"C46131","lat":49.91,"lon":-124.99,"long_name":"Sentry Shoal","pk":3},{"short_name":"C46132","lat":49.74,"lon":-127.93,"long_name":"South Brooks","pk":4},{"short_name":"C46134","lat":48.66,"lon":-123.48,"long_name":"Pat Bay Test Buoy","pk":5},{"short_name":"C46145","lat":54.38,"lon":-132.42,"long_name":"Central Dixon Entran","pk":6},{"short_name":"C46146","lat":49.34,"lon":-123.73,"long_name":"Halibut Bank","pk":7},{"short_name":"C46147","lat":51.83,"lon":-131.23,"long_name":"South Moresby","pk":8},{"short_name":"C46181","lat":53.82,"lon":-128.84,"long_name":"Nanakwa Shoal","pk":9},{"short_name":"C46182","lat":49.48,"lon":-123.29,"long_name":"Pam Rocks","pk":10},{"short_name":"C46183","lat":53.57,"lon":-131.14,"long_name":"North Hecate Strait","pk":11},{"short_name":"C46184","lat":53.92,"lon":-138.85,"long_name":"North Nomad","pk":12},{"short_name":"C46185","lat":52.42,"lon":-129.79,"long_name":"South Hecate Strait","pk":13},{"short_name":"C46204","lat":51.38,"lon":-128.77,"long_name":"West Sea Otter","pk":14},{"short_name":"C46205","lat":54.3,"lon":-133.4,"long_name":"West Dixon Entrance","pk":15},{"short_name":"C46206","lat":48.83,"lon":-126,"long_name":"La Perouse Bank","pk":16},{"short_name":"C46207","lat":50.88,"lon":-129.91,"long_name":"East Dellwood","pk":17},{"short_name":"C46208","lat":52.51,"lon":-132.69,"long_name":"West Moresby","pk":18}]